City,Cloudiness,Country,Date,Max Temp,Wind Speed,Lat,Lng,Humidity
tiksi,0,RU,1564718647,8.69,3.7,71.64,128.87,64
ponta do sol,82,BR,1564718745,17.49,1.55,-20.63,-46.0,51
sistranda,40,NO,1564718745,14.44,2.1,63.73,8.83,93
merauke,34,ID,1564718745,24.89,9.28,-8.49,140.4,78
kapaa,20,US,1564718745,32.0,10.3,22.08,-159.32,69
atuona,23,PF,1564718746,26.49,9.22,-9.8,-139.03,71
mataura,100,NZ,1564718746,7.78,11.18,-46.19,168.86,86
muroto,20,JP,1564718746,31.0,4.6,33.37,134.14,66
sevierville,40,US,1564718746,25.0,0.96,35.87,-83.56,88
jardim,0,BR,1564718746,22.39,1.95,-21.48,-56.15,43
teacapan,100,MX,1564718747,29.49,4.62,22.54,-105.74,73
hirara,40,JP,1564718747,30.0,6.7,24.8,125.28,74
fort frances,1,CA,1564718747,21.11,0.57,48.61,-93.4,100
yenagoa,91,NG,1564718747,23.49,3.21,4.92,6.26,91
ampanihy,3,MG,1564718748,18.59,1.26,-24.69,44.75,76
huarmey,34,PE,1564718748,15.99,6.3,-10.07,-78.15,87
bredasdorp,7,ZA,1564718749,13.0,1.5,-34.53,20.04,93
luganville,75,VU,1564718749,26.0,3.6,-15.51,167.18,69
kokstad,0,ZA,1564718749,5.19,2.81,-30.55,29.42,37
katsuura,20,JP,1564718749,33.0,2.6,33.93,134.5,63
butaritari,22,KI,1564718750,29.59,3.94,3.07,172.79,65
puerto ayora,77,EC,1564718750,20.0,2.68,-0.74,-90.35,93
geraldton,40,CA,1564718750,19.0,2.1,49.72,-86.95,77
rikitea,100,PF,1564718750,19.99,7.49,-23.12,-134.97,69
saint-georges,13,CA,1564718478,17.78,1.72,46.12,-70.67,100
lompoc,90,US,1564718703,19.44,4.1,34.64,-120.46,87
poum,0,MK,1564718751,16.0,2.1,41.28,20.71,87
kirakira,29,SB,1564718751,28.29,6.23,-10.46,161.92,75
busselton,100,AU,1564718751,20.0,10.32,-33.64,115.35,34
birao,100,CF,1564718751,21.59,0.33,10.3,22.78,94
thompson,90,CA,1564718751,18.0,2.64,55.74,-97.86,82
yellowknife,75,CA,1564718731,21.0,2.1,62.45,-114.38,37
lagoa,0,PT,1564718752,21.0,2.1,37.14,-8.45,52
cabedelo,75,BR,1564718752,23.0,3.1,-6.97,-34.84,100
vallenar,0,CL,1564718752,7.69,1.1,-28.58,-70.76,53
jalu,0,LY,1564718752,24.49,2.76,29.03,21.55,74
ushuaia,20,AR,1564718753,1.0,4.1,-54.81,-68.31,80
san patricio,100,PY,1564718753,11.89,5.45,-26.98,-56.83,74
parrita,75,CR,1564718753,22.78,1.0,9.52,-84.33,88
norman wells,40,CA,1564718753,24.0,2.6,65.28,-126.83,38
dubrovka,0,RU,1564718754,12.22,3.0,59.85,30.93,87
cabatuan,99,PH,1564718754,27.09,1.79,16.95,121.67,81
vila velha,40,BR,1564718754,30.0,6.2,-3.71,-38.6,74
arraial do cabo,0,BR,1564718754,19.49,6.62,-22.97,-42.02,90
uvat,100,RU,1564718754,18.79,4.01,59.14,68.9,92
barrow,39,AR,1564718755,7.49,9.2,-38.31,-60.23,67
blomberg,40,DE,1564718755,17.0,1.5,51.94,9.09,87
punta arenas,75,CL,1564718755,2.0,12.9,-53.16,-70.91,93
ilulissat,0,GL,1564718755,14.0,6.7,69.22,-51.1,33
narsaq,48,GL,1564718755,12.0,3.6,60.91,-46.05,54
xunchang,27,CN,1564718756,31.49,0.6,28.45,104.71,65
gafanha da encarnacao,90,PT,1564718756,18.89,3.1,40.62,-8.73,100
khatanga,40,RU,1564718756,20.89,6.35,71.98,102.47,38
nome,1,US,1564718756,28.33,3.2,30.04,-94.42,83
hilo,90,US,1564718757,27.0,5.1,19.71,-155.08,78
carnarvon,0,ZA,1564718757,9.99,5.77,-30.97,22.13,23
ostrovnoy,100,RU,1564718757,4.89,5.11,68.05,39.51,98
charters towers,0,AU,1564718757,22.79,6.11,-20.07,146.27,42
grindavik,75,IS,1564718758,11.0,2.1,63.84,-22.43,93
souillac,0,FR,1564718758,17.22,3.95,45.6,-0.6,87
victoria,75,BN,1564718508,31.0,1.0,5.28,115.24,74
sisimiut,0,GL,1564718758,6.89,2.43,66.94,-53.67,79
kargasok,0,RU,1564718758,26.49,5.53,59.06,80.87,47
klaksvik,33,FO,1564718759,12.0,1.5,62.23,-6.59,93
gat,40,SN,1564718759,26.0,3.6,14.69,-16.54,83
pevek,100,RU,1564718759,-0.22,0.96,69.7,170.27,97
hambantota,90,LK,1564718759,26.0,4.1,6.12,81.12,100
naze,70,NG,1564718760,22.39,1.46,5.43,7.07,97
kupang,20,ID,1564718760,30.0,11.8,-10.16,123.6,40
trzacka rastela,12,BA,1564718760,17.78,0.72,44.97,15.79,94
qaanaaq,52,GL,1564718760,6.59,4.61,77.48,-69.36,72
mar del plata,98,AR,1564718760,5.09,8.57,-46.43,-67.52,61
hobart,20,AU,1564718761,13.0,10.3,-42.88,147.33,43
lubango,39,AO,1564718761,11.29,0.3,-14.92,13.49,82
port alfred,0,ZA,1564718761,11.67,0.45,-33.59,26.89,88
east london,0,ZA,1564718590,14.0,4.6,-33.02,27.91,82
bilma,100,NE,1564718761,33.29,5.46,18.69,12.92,13
tacna,90,PE,1564718613,14.0,1.5,-18.01,-70.25,87
cape town,0,ZA,1564718677,11.11,2.1,-33.93,18.42,93
falam,92,MM,1564718762,23.79,0.47,22.91,93.68,80
arlit,92,NE,1564718762,35.09,4.07,18.74,7.39,10
hermanus,0,ZA,1564718762,11.11,5.06,-34.42,19.24,94
bulawayo,0,ZW,1564718763,11.79,4.7,-20.16,28.59,74
baykit,100,RU,1564718763,15.59,0.99,61.68,96.39,89
flinders,20,AU,1564718763,17.78,1.5,-34.58,150.85,48
esperance,27,AU,1564718763,16.0,6.2,-33.86,121.89,55
ciudad bolivar,99,VE,1564718763,24.89,2.66,8.12,-63.55,87
emba,40,CY,1564718764,24.0,3.6,34.81,32.42,73
scarborough,5,GB,1564718764,16.67,2.1,54.28,-0.41,93
manzil salim,20,TN,1564718764,22.0,2.1,35.86,8.48,37
vaini,75,IN,1564718764,22.0,6.2,15.34,74.49,100
alghero,0,IT,1564718765,26.67,1.0,40.56,8.32,69
bluff,0,AU,1564718765,22.19,7.63,-23.58,149.07,37
albany,20,US,1564718713,20.0,1.5,42.65,-73.75,82
rawson,0,AR,1564718765,6.19,9.94,-43.3,-65.11,55
whitecourt,90,CA,1564718765,18.0,3.1,54.14,-115.68,88
saint george,0,GR,1564718766,23.0,1.11,39.45,22.34,78
castro,90,CL,1564718766,5.0,1.5,-42.48,-73.76,100
cosina,0,IT,1564718766,23.33,2.1,44.26,11.95,49
constitucion,75,MX,1564718766,23.0,3.6,23.99,-104.67,28
tuatapere,100,NZ,1564718766,7.78,11.18,-46.13,167.69,86
amuntai,24,ID,1564718767,34.09,0.65,-2.42,115.25,43
alofi,90,NU,1564718765,23.0,2.1,-19.06,-169.92,94
richards bay,0,ZA,1564718767,20.09,6.87,-28.77,32.06,82
new norfolk,20,AU,1564718767,13.0,10.3,-42.78,147.06,43
longyearbyen,75,NO,1564718767,7.0,1.0,78.22,15.63,87
hithadhoo,96,MV,1564718768,28.99,7.31,-0.6,73.08,75
kodiak,1,US,1564718768,23.89,2.6,39.95,-94.76,83
nabire,100,ID,1564718768,22.19,2.77,-3.36,135.5,90
bambous virieux,40,MU,1564718769,21.67,2.6,-20.34,57.76,73
katobu,29,ID,1564718769,29.09,3.93,-4.94,122.53,46
faanui,48,PF,1564718769,25.89,7.68,-16.48,-151.75,78
broome,13,GB,1564718769,16.67,2.1,52.47,1.45,93
san lazaro,40,BZ,1564718770,25.0,1.6,18.04,-88.66,83
korgen,40,NO,1564718770,10.0,4.6,66.08,13.83,81
lavrentiya,100,RU,1564718770,12.79,2.13,65.58,-170.99,51
gizo,40,IL,1564718770,25.0,3.1,31.8,34.94,73
mehamn,40,NO,1564718771,7.0,4.1,71.03,27.85,93
kingaroy,40,AU,1564718771,19.0,4.1,-26.54,151.84,48
sahuaripa,100,MX,1564718519,23.79,2.28,29.05,-109.23,80
avarua,53,CK,1564718771,25.0,2.6,-21.21,-159.78,78
karabulak,0,KZ,1564718771,35.09,2.1,44.91,78.49,13
kimparana,76,ML,1564718772,23.99,1.76,12.83,-4.92,87
bilibino,100,RU,1564718772,5.19,1.85,68.06,166.44,73
severo-kurilsk,0,RU,1564718772,9.69,4.36,50.68,156.12,87
kieta,100,PG,1564718772,27.89,5.72,-6.22,155.63,76
elliot lake,1,CA,1564718773,17.0,2.6,46.37,-82.65,77
halifax,20,CA,1564718519,20.56,3.6,44.65,-63.58,88
burnie,84,AU,1564718773,13.33,3.58,-41.05,145.91,47
miles city,40,US,1564718773,29.0,4.6,46.41,-105.84,26
chuy,55,UY,1564718773,9.39,6.3,-33.69,-53.46,70
kropotkin,19,RU,1564718774,16.49,1.21,45.43,40.58,65
vestmannaeyjar,9,IS,1564718774,11.39,3.73,63.44,-20.27,89
galiakot,100,IN,1564718774,25.49,4.87,23.54,74.01,93
waingapu,4,ID,1564718774,27.09,9.63,-9.65,120.26,47
port elizabeth,1,US,1564718775,24.0,1.09,39.31,-74.98,94
fukue,20,JP,1564718775,40.0,4.1,35.03,136.69,74
rostovka,75,RU,1564718775,19.0,5.0,55.02,73.58,93
tondano,20,ID,1564718775,32.0,5.1,1.3,124.91,46
gurlan,0,UZ,1564718775,27.0,5.1,41.84,60.39,51
shimanovsk,0,RU,1564718776,25.79,2.19,52.0,127.67,48
muyezerskiy,100,RU,1564718776,8.19,3.81,63.93,31.65,94
talnakh,0,RU,1564718776,16.0,4.0,69.49,88.39,72
kant,0,KG,1564718776,31.0,2.0,42.89,74.85,27
saint-philippe,1,CA,1564718777,21.11,3.51,45.36,-73.48,93
amurzet,0,CN,1564718777,27.29,5.03,47.69,131.09,51
husavik,79,CA,1564718777,21.67,1.45,50.56,-96.99,64
kruisfontein,0,ZA,1564718777,9.79,2.86,-34.0,24.73,86
nikolskoye,0,RU,1564718778,12.22,3.0,59.7,30.79,87
tasiilaq,0,GL,1564718778,3.0,0.31,65.61,-37.64,93
port lincoln,67,AU,1564718778,13.99,3.32,-34.72,135.86,72
sulangan,100,PH,1564718778,29.29,5.13,11.14,123.72,71
sakata,20,JP,1564718779,34.0,5.1,38.92,139.93,79
cherskiy,67,RU,1564718779,7.59,6.1,68.75,161.3,59
ondjiva,40,AO,1564718779,10.29,1.0,-17.07,15.73,20
biak,30,ID,1564718779,20.59,2.89,-0.91,122.88,72
vuktyl,100,RU,1564718780,12.59,4.95,63.86,57.31,89
saskylakh,0,RU,1564718780,18.89,4.36,71.97,114.09,36
jamestown,2,AU,1564718780,13.49,3.45,-33.21,138.6,53
gaeta,0,IT,1564718780,23.33,0.99,41.22,13.56,88
upernavik,31,GL,1564718781,7.99,2.29,72.79,-56.15,74
berlevag,40,NO,1564718781,5.0,4.1,70.86,29.09,93
teya,75,MX,1564718781,26.11,2.6,21.05,-89.07,78
komsomolskiy,100,RU,1564718781,13.29,6.02,67.55,63.78,75
kavaratti,40,IN,1564718781,30.0,4.1,10.57,72.64,79
quatre cocos,40,MU,1564718782,21.67,2.6,-20.21,57.76,73
vila franca do campo,75,PT,1564718782,22.0,4.1,37.72,-25.43,100
yarada,75,IN,1564718782,28.0,7.2,17.65,83.27,78
ust-kulom,33,RU,1564718782,12.39,3.54,61.69,53.69,78
bahia honda,100,CU,1564718783,28.09,3.17,22.9,-83.16,74
coos bay,1,US,1564718783,21.11,5.7,43.37,-124.22,77
port augusta,0,AU,1564718783,15.0,3.1,-32.49,137.76,47
hamilton,20,CA,1564718672,19.44,2.6,43.26,-79.87,77
tevriz,80,RU,1564718783,20.39,2.96,57.51,72.4,84
dalby,0,AU,1564718758,19.0,5.7,-27.18,151.26,39
darhan,100,MN,1564718784,20.69,2.24,49.49,105.92,69
erzin,40,TR,1564718784,26.67,2.1,36.95,36.2,88
tuktoyaktuk,75,CA,1564718784,10.0,4.6,69.44,-133.03,76
srandakan,3,ID,1564718784,24.09,7.99,-7.94,110.25,82
esil,0,KZ,1564718785,13.99,10.35,51.96,66.41,61
kawhia,100,NZ,1564718785,11.11,1.34,-38.07,174.82,56
blytheville,1,US,1564718785,24.0,2.46,35.93,-89.92,94
ghimbav,75,RO,1564718785,16.67,1.34,45.66,25.51,89
puerto quijarro,0,BO,1564718785,23.19,1.29,-19.0,-57.72,47
sibolga,100,ID,1564718786,27.09,3.35,1.74,98.78,75
vardo,1,US,1564718786,24.44,1.02,39.62,-77.74,88
sobolevo,100,RU,1564718786,10.79,1.74,54.43,31.9,88
san cristobal,9,HN,1564718786,19.99,0.74,14.68,-86.92,90
bathsheba,40,BB,1564718787,28.0,6.7,13.22,-59.52,78
begunitsy,0,RU,1564718787,12.22,3.0,59.58,29.3,87
nouadhibou,0,MR,1564718787,20.0,5.7,20.93,-17.03,77
ribeira grande,4,PT,1564718787,22.69,6.05,38.52,-28.7,82
anadyr,90,RU,1564718788,11.0,3.0,64.73,177.51,93
worthington,1,US,1564718630,22.22,1.5,43.62,-95.6,83
prokhorovka,75,RU,1564718788,13.0,3.0,51.03,36.73,87
sorland,100,NO,1564718788,11.09,6.13,67.67,12.69,80
portland,1,US,1564718776,20.56,1.93,43.66,-70.25,77
lalibela,100,ET,1564718788,13.99,0.26,12.04,39.05,89
fairbanks,75,US,1564718654,18.0,5.1,64.84,-147.72,48
galveston,1,US,1564718789,22.78,3.1,40.58,-86.19,72
dunfermline,90,GB,1564718789,16.0,1.0,56.07,-3.46,100
hualmay,31,PE,1564718790,15.49,6.13,-11.1,-77.61,87
omboue,100,GA,1564718790,22.99,6.53,-1.57,9.26,87
villa carlos paz,0,AR,1564718790,8.33,2.6,-31.42,-64.5,33
georgetown,20,GY,1564718672,24.0,1.0,6.8,-58.16,100
sinjai,100,ID,1564718791,22.79,3.54,-5.12,120.25,72
nyurba,85,RU,1564718791,17.29,1.73,63.29,118.35,54
maragogi,86,BR,1564718791,21.49,1.83,-9.01,-35.22,96
jieshou,100,CN,1564718791,28.49,3.59,33.26,115.35,81
cidreira,86,BR,1564718792,12.79,5.01,-30.17,-50.22,83
marienburg,0,DE,1564718792,18.33,1.0,52.12,9.98,87
daoukro,100,CI,1564718792,21.39,2.03,7.06,-3.97,90
iqaluit,90,CA,1564718792,6.0,1.5,63.75,-68.52,93
jiazi,40,CN,1564718792,28.0,4.0,19.61,110.49,83
tucurui,86,BR,1564718550,26.09,1.54,-3.77,-49.67,62
honiara,20,SB,1564718793,32.0,8.7,-9.43,159.96,55
padang,100,ID,1564718793,26.69,2.89,-0.92,100.36,76
shamkhal,75,RU,1564718793,24.0,3.0,43.06,47.33,83
nanortalik,52,GL,1564718793,4.99,0.69,60.14,-45.24,89
puerto baquerizo moreno,77,EC,1564718794,20.29,5.93,-0.9,-89.6,88
prince rupert,1,CA,1564718794,17.0,2.1,54.32,-130.32,77
pangnirtung,98,CA,1564718794,9.79,1.42,66.15,-65.72,63
stokmarknes,62,NO,1564718794,11.11,7.46,68.56,14.91,82
ambilobe,40,MG,1564718794,21.39,4.03,-13.19,49.05,73
racasdia,0,RO,1564718795,18.89,1.0,44.99,21.62,100
big spring,1,US,1564718795,31.11,4.1,32.25,-101.48,35
dikson,100,RU,1564718795,7.39,5.91,73.51,80.55,79
bone,0,DE,1564718795,17.78,1.5,51.97,12.14,82
pochutla,77,MX,1564718796,27.78,1.84,15.74,-96.47,77
rafai,48,CF,1564718796,19.29,0.51,4.95,23.92,99
victoria point,40,AU,1564718796,22.78,5.1,-27.58,153.3,60
wamba,100,CD,1564718797,18.69,0.81,2.14,27.99,96
san jose,40,HN,1564718797,22.0,5.7,14.25,-87.96,94
polczyn-zdroj,72,PL,1564718797,11.67,0.4,53.76,16.1,92
altay,0,CN,1564718797,21.19,1.81,47.83,88.13,36
harper,1,US,1564718797,29.0,1.5,30.3,-99.24,48
ancud,90,CL,1564718798,5.0,1.5,-41.87,-73.83,100
sao gabriel da cachoeira,45,BR,1564718798,22.59,0.78,-0.13,-67.09,93
haines junction,81,CA,1564718798,14.99,3.45,60.75,-137.51,51
kuybysheve,92,UA,1564718798,13.49,1.71,47.36,36.65,77
karratha,0,AU,1564718799,28.09,11.09,-20.74,116.85,19
cayenne,47,GF,1564718799,24.0,1.59,4.94,-52.33,94
nelson bay,75,AU,1564718799,17.78,4.1,-32.72,152.14,77
qaqortoq,48,GL,1564718799,12.0,3.6,60.72,-46.03,54
lexington,1,US,1564718724,23.0,2.95,38.05,-84.5,69
paamiut,100,GL,1564718800,4.69,7.97,61.99,-49.67,87
puerto santander,20,VE,1564718800,28.0,4.6,8.35,-72.41,54
comodoro rivadavia,0,AR,1564718800,9.0,9.3,-45.87,-67.48,49
san policarpo,100,PH,1564718800,29.19,4.62,12.18,125.51,72
lamu,100,CN,1564718801,19.39,0.98,35.77,102.37,46
kysyl-syr,0,RU,1564718801,20.39,0.31,63.9,122.77,45
bay roberts,5,CA,1564718801,19.44,6.7,47.58,-53.28,93
tshela,77,CD,1564718801,20.29,0.88,-4.99,12.94,88
fallon,1,US,1564718802,24.44,3.1,46.84,-105.12,69
francistown,0,BW,1564718802,11.19,5.24,-21.17,27.5,86
westport,75,US,1564718725,24.44,2.1,41.14,-73.36,64
ahipara,88,NZ,1564718802,15.0,13.31,-35.17,173.16,92
villa bruzual,14,VE,1564718802,19.39,1.03,9.33,-69.12,97
avera,1,US,1564718803,24.44,0.58,33.19,-82.53,83
shinpokh,75,PK,1564718803,30.0,2.1,34.33,71.18,74
roald,3,NO,1564718803,15.0,4.6,62.58,6.12,87
danilovka,50,RU,1564718803,11.39,3.21,50.35,44.12,83
kijang,20,KR,1564718804,34.0,5.1,35.24,129.21,56
kaeo,79,NZ,1564718804,15.0,7.07,-35.1,173.78,92
moussoro,100,TD,1564718804,27.19,4.75,13.64,16.49,63
cabo san lucas,5,MX,1564718652,31.11,4.6,22.89,-109.91,48
santa isabel do rio negro,100,BR,1564718804,22.59,0.71,-0.41,-65.02,93
chokurdakh,2,RU,1564718805,12.89,3.76,70.62,147.9,42
khromtau,21,KZ,1564718805,12.29,11.47,50.26,58.44,70
aklavik,75,CA,1564718805,16.0,4.1,68.22,-135.01,63
high level,75,CA,1564718805,18.0,1.58,58.52,-117.13,82
praya,40,ID,1564718806,29.0,7.2,-8.71,116.27,58
cordoba,27,AR,1564718806,5.89,2.55,-27.78,-67.24,37
hasaki,40,JP,1564718806,37.78,4.1,35.73,140.83,75
novobirilyussy,0,RU,1564718806,24.49,4.3,56.95,90.69,45
kununurra,0,AU,1564718807,27.0,6.7,-15.77,128.74,13
tam ky,40,VN,1564718807,35.0,2.6,15.57,108.48,50
bangassou,0,CF,1564718807,18.89,0.41,4.74,22.82,98
mount isa,0,AU,1564718807,24.0,7.7,-20.73,139.49,29
gwadar,100,PK,1564718807,27.69,2.24,25.12,62.33,84
bubaque,100,GW,1564718808,25.99,4.7,11.28,-15.83,84
teahupoo,40,PF,1564718808,27.0,3.1,-17.83,-149.27,69
tessalit,30,ML,1564718808,35.09,3.43,20.2,1.01,13
faya,40,SA,1564718808,20.0,3.6,18.39,42.45,77
ilebo,0,CD,1564718809,22.09,0.54,-4.33,20.59,54
lensk,53,RU,1564718809,23.49,1.84,60.71,114.91,37
beringovskiy,100,RU,1564718809,8.49,4.47,63.05,179.32,96
edd,100,ER,1564718809,33.39,2.81,13.93,41.69,36
yabrud,0,SY,1564718809,19.0,7.7,33.97,36.66,82
inhambane,3,MZ,1564718810,16.99,1.74,-23.87,35.38,97
hofn,2,IS,1564718810,5.29,1.3,64.25,-15.21,81
bad reichenhall,75,DE,1564718810,17.22,3.1,47.72,12.88,88
maku,0,IR,1564718811,16.59,0.97,39.29,44.45,69
port macquarie,75,AU,1564718811,19.44,4.1,-31.43,152.91,67
vanavara,41,RU,1564718811,25.59,4.27,60.35,102.28,39
greenwood,0,CA,1564718739,28.89,2.24,49.09,-118.68,30
mahebourg,40,MU,1564718811,21.67,2.6,-20.41,57.7,73
krasnoarmeysk,90,RU,1564718812,13.89,3.0,56.12,38.15,93
boden,100,SE,1564718812,13.0,3.6,65.83,21.69,71
conceicao da barra,0,BR,1564718812,18.99,1.08,-18.59,-39.73,96
killybegs,92,IE,1564718812,12.22,0.89,54.63,-8.45,93
jaipur,90,IN,1564718631,29.0,3.1,26.92,75.82,83
tevaitoa,83,PF,1564718813,25.79,7.89,-16.78,-151.5,78
krasnyy yar,4,RU,1564718813,10.89,2.98,50.7,44.73,86
shahreza,0,IR,1564718813,21.19,0.35,32.01,51.87,19
namatanai,42,PG,1564718813,26.79,4.61,-3.66,152.44,82
hurricane,1,US,1564718620,34.44,2.6,37.18,-113.29,36
doka,100,SD,1564718814,23.09,1.21,13.52,35.76,87
port blair,75,IN,1564718814,29.0,4.6,11.67,92.75,79
neftcala,18,AZ,1564718814,26.09,5.26,39.37,49.25,67
tura,100,RU,1564718814,16.59,7.38,64.27,100.22,48
clyde river,90,CA,1564718815,8.0,3.6,70.47,-68.59,87
banda aceh,85,ID,1564718577,28.39,11.08,5.56,95.32,77
kaitangata,100,NZ,1564718815,7.78,8.05,-46.28,169.85,76
rantauprapat,100,ID,1564718637,25.29,1.37,2.1,99.83,62
kumluca,0,TR,1564718815,19.19,2.74,36.37,30.29,63
north bend,90,US,1564718816,21.11,3.1,43.41,-124.22,77
khandbari,100,NP,1564718816,17.19,1.79,27.38,87.21,85
fortuna,75,US,1564718816,18.89,3.6,40.6,-124.16,87
escarcega,28,MX,1564718816,24.09,2.49,18.61,-90.75,94
dukat,0,AL,1564718816,26.11,1.83,40.25,19.57,69
sao jose da coroa grande,86,BR,1564718817,21.49,1.83,-8.9,-35.15,96
saldanha,0,PT,1564718817,17.29,1.29,41.42,-6.55,64
lebu,75,ET,1564718817,12.0,3.1,8.96,38.73,93
lata,61,IN,1564718817,9.49,2.06,30.78,78.62,85
krasnosilka,41,UA,1564718818,13.09,2.15,50.15,27.08,93
thyolo,33,MW,1564718818,16.09,2.44,-16.07,35.15,92
bata,40,GQ,1564718818,24.0,7.45,1.87,9.77,100
yulara,0,AU,1564718818,14.0,5.1,-25.24,130.99,33
kahului,75,US,1564718819,28.33,9.8,20.89,-156.47,69
surt,0,LY,1564718819,25.99,4.63,31.21,16.59,80
tongliao,97,CN,1564718819,35.09,3.99,43.61,122.27,21
dongning,3,CN,1564718819,27.49,3.52,44.06,131.12,59
daru,99,PG,1564718820,24.89,5.4,-9.07,143.21,76
makakilo city,75,US,1564718820,30.0,6.7,21.35,-158.09,100
moju,40,BR,1564718820,25.0,1.0,-1.89,-48.77,88
rio gallegos,0,AR,1564718820,1.0,6.2,-51.62,-69.22,86
hermiston,1,US,1564718524,32.0,2.1,45.84,-119.29,28
leningradskiy,71,RU,1564718821,1.79,5.69,69.38,178.42,92
alice town,92,BS,1564718821,28.99,5.77,25.72,-79.3,72
popondetta,100,PG,1564718821,20.99,1.63,-8.77,148.24,89
alice springs,0,AU,1564718822,14.0,3.6,-23.7,133.88,28
margherita,75,IN,1564718822,28.0,2.26,27.29,95.67,88
deputatskiy,42,RU,1564718822,10.79,7.42,69.3,139.9,55
ulladulla,20,AU,1564718822,16.67,1.5,-35.36,150.48,48
kanigiri,100,IN,1564718822,25.89,6.06,15.41,79.51,74
namibe,95,AO,1564718823,16.89,6.54,-15.19,12.15,88
provideniya,90,RU,1564718823,10.0,2.0,64.42,-173.23,81
evensk,74,RU,1564718823,16.39,2.35,61.92,159.24,48
bolshoye murashkino,100,RU,1564718823,10.49,4.81,55.78,44.78,86
derzhavinsk,0,KZ,1564718824,14.49,11.17,51.1,66.31,55
the valley,40,AI,1564718701,28.0,5.7,18.22,-63.06,78
tual,16,ID,1564718824,24.59,10.0,-5.67,132.75,79
seoul,40,KR,1564718740,34.0,1.0,37.57,126.98,70
jacksonville,75,US,1564718808,27.0,2.1,30.33,-81.66,94
grimshaw,90,CA,1564718825,17.0,3.1,56.19,-117.61,82
kisangani,0,CD,1564718825,21.79,0.73,0.52,25.21,86
kloulklubed,98,PW,1564718825,28.19,11.38,7.04,134.26,78
kavieng,6,PG,1564718825,27.39,5.22,-2.57,150.8,81
kohat,75,PK,1564718825,28.0,2.1,33.6,71.44,74
mahuta,84,TZ,1564718826,21.49,0.67,-10.87,39.42,88
doha,0,QA,1564718570,37.0,2.6,25.29,51.53,23
cockburn town,2,TC,1564718635,29.09,9.87,21.46,-71.14,72
balikpapan,87,ID,1564718826,26.99,2.49,-1.24,116.86,68
muros,75,ES,1564718826,17.78,8.26,42.77,-9.06,93
kibungo,40,RW,1564718827,18.0,2.1,-2.14,30.55,82
preobrazheniye,54,RU,1564718827,30.29,3.34,42.9,133.91,42
codrington,13,AU,1564718827,19.0,2.6,-28.95,153.24,63
hyeres,0,FR,1564718827,22.0,0.5,43.12,6.14,83
wuda,23,CN,1564718827,29.79,6.28,39.5,106.72,31
vao,100,EE,1564718828,12.79,2.64,59.1,26.19,67
floro,40,NO,1564718609,15.0,2.1,61.6,5.03,93
chegdomyn,99,RU,1564718828,18.29,2.66,51.13,133.04,82
kaniama,30,CD,1564718828,16.89,1.84,-7.57,24.18,29
mazamitla,96,MX,1564718829,17.89,2.15,19.92,-103.02,79
mana,100,NG,1564718829,24.99,5.05,13.03,5.27,68
port hardy,90,CA,1564718829,14.0,3.6,50.7,-127.42,100
inuvik,75,CA,1564718829,16.0,4.1,68.36,-133.71,63
coahuayana,87,MX,1564718830,23.89,1.0,18.62,-100.35,81
laharpur,0,IN,1564718830,30.49,4.65,27.71,80.9,70
san juan del cesar,40,CO,1564718830,24.0,2.6,10.77,-73.01,94
salamina,47,CO,1564718830,14.39,1.12,5.41,-75.49,95
yazd,40,IR,1564718831,31.0,2.1,31.89,54.36,15
isangel,90,VU,1564718831,24.0,6.7,-19.55,169.27,57
bereda,43,ES,1564718831,19.44,1.5,43.27,-7.54,93
pacific grove,1,US,1564718813,20.0,2.1,36.62,-121.92,82
fremont,75,US,1564718795,20.0,4.6,37.55,-121.99,82
sharjah,3,AE,1564718831,33.0,2.6,25.36,55.39,79
verkhnevilyuysk,100,RU,1564718832,14.89,0.34,63.45,120.31,69
salalah,90,OM,1564718832,25.0,1.0,17.01,54.1,100
conway,90,US,1564718799,26.11,1.56,35.09,-92.44,78
gobabis,0,NA,1564718833,14.0,2.6,-22.45,18.97,17
buraydah,0,SA,1564718833,28.0,3.1,26.33,43.97,34
venustiano carranza,75,MX,1564718833,19.0,5.1,19.42,-99.11,45
dzaoudzi,0,YT,1564718833,25.0,2.6,-12.79,45.27,88
ashcroft,75,AU,1564718833,18.89,4.6,-33.91,150.9,67
guymon,1,US,1564718834,29.0,5.7,36.68,-101.48,39
bethel,90,US,1564718834,17.0,5.7,60.79,-161.76,100
dabhol,99,IN,1564718834,27.79,10.97,17.6,73.17,79
saint-joseph,0,FR,1564718834,22.0,1.0,43.56,6.97,94
gondanglegi,73,ID,1564718835,28.59,3.55,-7.75,112.01,56
hun,0,BE,1564718835,15.0,1.5,50.34,4.87,93
dwarka,75,IN,1564718835,31.67,3.6,28.58,77.04,74
alamosa,90,US,1564718835,17.0,5.7,37.47,-105.87,87
dingle,100,PH,1564718836,26.59,3.17,11.0,122.67,84
basco,1,US,1564718836,21.0,2.32,40.33,-91.2,72
novska,0,HR,1564718836,18.0,1.5,45.34,16.98,93
santa fe,0,AR,1564718836,11.11,2.68,-31.62,-60.7,51
magway,98,MM,1564718837,24.59,1.22,20.15,94.92,91
belogorsk,0,RU,1564718837,23.99,2.14,50.92,128.47,62
fenoarivo,40,MG,1564718837,12.0,2.1,-18.93,47.44,100
kiunga,91,PG,1564718837,26.99,2.12,-6.12,141.3,67
krasnyy chikoy,59,RU,1564718837,25.89,0.31,50.36,108.75,49
markova,0,RU,1564718838,23.0,3.0,52.21,104.21,73
kawalu,39,ID,1564718838,24.29,2.51,-7.38,108.21,65
fort myers beach,75,US,1564718582,25.0,4.1,26.45,-81.95,94
haapiti,40,PF,1564718838,27.0,3.1,-17.57,-149.87,69
yilan,19,CN,1564718787,30.89,3.57,43.11,129.52,39
uporovo,67,RU,1564718546,13.69,5.62,56.31,66.27,84
laguna,20,BZ,1564718839,26.0,0.63,16.17,-88.94,94
mecca,41,SA,1564718589,25.89,1.13,21.43,39.83,75
ayagoz,65,KZ,1564718839,27.99,4.62,47.96,80.43,27
helong,100,CN,1564718839,25.69,0.57,25.94,116.13,82
along,100,IN,1564718839,17.89,0.46,28.17,94.8,94
belmonte,0,PT,1564718840,16.67,0.14,40.36,-7.35,92
chumikan,100,RU,1564718840,14.49,1.6,54.72,135.31,87
hami,100,CN,1564718840,34.69,8.19,42.84,93.51,10
jipijapa,20,EC,1564718840,23.0,4.1,-1.35,-80.58,83
mount gambier,75,AU,1564718840,12.0,4.1,-37.83,140.78,87
parana,0,BR,1564718841,23.0,0.49,-7.52,-72.89,94
acapulco,75,MX,1564718841,30.0,3.1,16.86,-99.88,74
chenzhou,100,CN,1564718841,26.29,1.7,25.81,113.03,82
poykovskiy,0,RU,1564718841,21.0,5.0,61.23,73.33,77
keita,75,NG,1564718841,24.0,2.1,7.1,3.65,94
pauini,0,BR,1564718842,23.49,0.87,-7.71,-67.0,55
airai,2,TL,1564718842,28.59,0.68,-8.93,125.41,43
innisfail,81,AU,1564718843,19.19,4.94,-17.52,146.03,88
aswan,0,EG,1564718843,30.0,3.1,24.09,32.9,19
kuzino,83,RU,1564718843,8.79,2.94,57.02,59.44,98
pocerski pricinovic,0,RS,1564718843,21.0,2.1,44.72,19.71,88
qandala,100,SO,1564718844,31.99,9.27,11.47,49.87,48
santa rosa,0,AR,1564718844,7.69,4.63,-36.62,-64.29,44
yazoo city,1,US,1564718844,26.0,2.63,32.86,-90.41,94
sitka,97,US,1564718845,30.0,4.92,37.17,-99.65,43
porto novo,0,BR,1564718845,17.0,5.02,-23.68,-45.44,72
camacha,20,PT,1564718845,21.0,2.6,33.08,-16.33,77
manaure,20,CO,1564718845,30.0,6.2,11.78,-72.45,55
zverinogolovskoye,0,RU,1564718845,13.19,7.33,54.46,64.85,69
bom jesus da lapa,99,BR,1564718846,22.19,1.2,-13.25,-43.41,44
ramygala,90,LT,1564718846,13.0,1.0,55.51,24.3,93
stolniceni-prajescu,18,RO,1564718846,18.0,3.1,47.2,26.75,88
teguise,90,ES,1564718846,22.0,6.2,29.06,-13.56,73
unecha,100,RU,1564718846,11.89,2.25,52.85,32.69,91
klamath falls,1,US,1564718623,23.89,3.6,42.22,-121.78,40
taltal,0,CL,1564718847,8.89,0.25,-25.41,-70.49,80
ilesha,85,NG,1564718847,21.59,1.67,7.14,5.26,98
cururupu,1,BR,1564718847,22.19,0.75,-1.82,-44.87,98
dombarovskiy,44,RU,1564718847,12.89,12.88,50.76,59.54,67
ust-maya,13,RU,1564718848,22.49,1.79,60.42,134.54,42
rudnogorsk,0,RU,1564718848,26.09,0.25,57.27,103.75,49
yumen,0,CN,1564718848,30.09,5.65,40.29,97.04,15
tame,76,CO,1564718848,11.59,1.39,6.46,-71.72,94
kulhudhuffushi,100,MV,1564718848,28.49,4.28,6.62,73.07,71
mtambile,0,TZ,1564718849,25.19,7.3,-5.38,39.7,84
ust-tsilma,100,RU,1564718849,7.19,4.82,65.44,52.15,97
pimentel,0,BR,1564718849,21.89,1.23,-3.7,-45.5,95
ahvaz,0,IR,1564718850,33.0,1.0,31.32,48.68,31
ballina,97,IE,1564718850,13.89,0.45,54.11,-9.15,92
makubetsu,20,JP,1564718850,34.0,1.5,42.84,143.34,56
newport,75,GB,1564718850,16.67,3.1,51.59,-3.0,100
mandan,1,US,1564718851,19.44,1.07,46.83,-100.89,88
gazanjyk,0,TM,1564718851,32.59,5.46,39.24,55.52,30
deniliquin,13,AU,1564718851,12.78,3.58,-35.53,144.96,64
mackenzie,1,CA,1564718851,16.0,4.6,55.34,-123.09,63
pilar,0,AR,1564718851,11.0,5.7,-34.46,-58.91,46
saint-francois,0,FR,1564718852,16.0,1.0,46.42,3.91,72
lisakovsk,99,KZ,1564718852,13.79,12.02,52.55,62.49,61
birjand,0,IR,1564718852,26.0,2.1,32.86,59.22,16
bhadrachalam,100,IN,1564718852,23.49,6.36,17.67,80.89,92
general pico,0,AR,1564718853,7.09,4.25,-35.66,-63.75,43
houma,99,CN,1564718783,29.89,4.86,35.63,111.36,45
moskovskiy,75,RU,1564718853,13.89,4.0,55.6,37.35,87
urdoma,97,RU,1564718853,11.09,3.13,61.74,48.55,96
nang rong,75,TH,1564718853,31.0,6.2,14.64,102.79,58
semnan,40,IR,1564718854,24.69,1.55,35.58,53.39,18
nha trang,40,VN,1564718854,34.0,8.7,12.24,109.19,49
montmagny,0,FR,1564718767,19.0,2.1,48.97,2.34,67
san quintin,96,PH,1564718854,28.19,3.68,17.54,120.52,79
roma,20,IT,1564718788,23.0,2.1,41.89,12.48,52
colares,75,PT,1564718855,18.33,4.6,38.8,-9.45,82
la ronge,20,CA,1564718855,21.0,3.1,55.1,-105.3,68
hervey bay,75,AU,1564718855,24.44,5.1,-25.3,152.85,72
gornopravdinsk,100,RU,1564718855,19.99,2.63,60.06,69.92,93
moctezuma,99,MX,1564718855,27.19,2.91,29.81,-109.68,53
wasilla,75,US,1564718588,18.0,3.6,61.58,-149.44,67
naryan-mar,100,RU,1564718856,7.09,7.72,67.67,53.09,83
alexandria,1,RO,1564718856,22.78,1.84,43.97,25.33,78
millau,0,FR,1564718856,12.0,1.5,44.1,3.08,87
sao filipe,40,CV,1564718856,23.29,8.59,14.9,-24.5,86
witzenhausen,75,DE,1564718857,15.0,1.0,51.34,9.86,87
santa marta,75,CO,1564718857,29.0,3.1,11.24,-74.21,79
sept-iles,20,CA,1564718857,15.0,1.0,50.2,-66.38,77
phalodi,100,IN,1564718857,29.69,6.34,27.13,72.36,72
igarka,74,RU,1564718857,17.09,2.73,67.47,86.57,54
ust-kuyga,0,RU,1564718858,16.29,2.94,70.0,135.55,36
okhotsk,100,RU,1564718858,14.39,6.87,59.36,143.24,83
mnogovershinnyy,99,RU,1564718858,17.09,1.22,53.94,139.92,79
zafarabad,62,UZ,1564718858,33.69,1.98,40.39,67.82,16
torrington,90,US,1564718673,23.0,3.1,42.06,-104.18,94
ocos,40,GT,1564718858,27.0,2.43,14.51,-92.19,88
usak,0,TR,1564718750,23.89,1.0,38.67,29.41,72
coquimbo,0,CL,1564718859,9.0,1.5,-29.95,-71.34,76
alausi,71,EC,1564718601,12.29,0.55,-2.2,-78.83,88
bonavista,31,CA,1564718859,17.22,0.89,48.65,-53.11,74
rio brilhante,0,BR,1564718859,22.19,2.69,-21.8,-54.54,43
miandrivazo,0,MG,1564718860,21.29,0.99,-19.53,45.46,75
buala,67,SB,1564718860,28.39,4.93,-8.15,159.59,73
schwabach,0,DE,1564718860,15.56,1.5,49.33,11.02,87
eufaula,90,US,1564718860,22.78,1.44,31.89,-85.15,100
tautira,40,PF,1564718861,27.0,3.1,-17.73,-149.15,69
sinnamary,62,GF,1564718861,27.39,5.5,5.38,-52.96,80
lasa,40,CY,1564718861,24.0,3.6,34.92,32.53,73
buin,0,CL,1564718861,7.0,2.6,-33.73,-70.74,75
west sacramento,1,US,1564718861,26.67,5.1,38.58,-121.53,53
la rioja,0,AR,1564718862,4.99,1.79,-29.41,-66.86,20
tatarbunary,2,UA,1564718862,18.79,2.99,45.84,29.62,75
verkhnyaya inta,100,RU,1564718862,10.99,5.51,65.99,60.32,88
yatou,100,CM,1564718862,25.29,6.14,3.63,9.81,84
gazojak,12,TM,1564718862,29.19,7.27,41.19,61.4,40
banepa,40,NP,1564718815,27.0,1.5,27.63,85.52,69
bakchar,0,RU,1564718863,25.69,3.69,57.02,82.07,50
moose factory,90,CA,1564718863,18.0,2.1,51.26,-80.61,88
kuopio,90,FI,1564718863,12.0,5.1,62.89,27.68,71
paliyad,100,IN,1564718863,27.69,7.85,22.26,71.56,80
palauig,100,PH,1564718864,28.59,8.73,15.44,119.9,79
contamana,0,PE,1564718864,22.89,0.85,-7.35,-75.01,59
port-gentil,100,GA,1564718864,24.19,6.86,-0.72,8.78,81
qeshm,40,IR,1564718864,34.0,2.1,26.96,56.27,79
whitehorse,90,CA,1564718865,19.0,5.1,60.72,-135.06,45
guerrero negro,0,MX,1564718865,19.19,7.27,27.97,-114.04,90
abu samrah,0,SY,1564718865,19.19,3.85,35.3,37.18,86
birin,75,NP,1564718865,29.0,3.1,26.89,88.07,79
champerico,75,MX,1564718866,26.0,5.1,16.38,-93.6,69
mastung,23,PK,1564718866,27.49,3.79,29.8,66.85,47
khani,40,GE,1564718866,21.0,1.0,41.96,42.96,100
giyon,100,ET,1564718866,13.39,0.64,8.53,37.98,94
leshukonskoye,100,RU,1564718867,5.79,3.91,64.9,45.76,90
livingston,75,US,1564718867,25.0,1.53,32.58,-88.19,88
varniai,0,LT,1564718867,11.0,2.1,55.74,22.37,100
road town,20,VG,1564718597,28.0,4.1,18.42,-64.62,78
hearst,37,CA,1564718867,18.79,3.5,49.69,-83.67,53
chiriqui grande,100,PA,1564718868,14.44,0.77,8.95,-82.12,63
tebingtinggi,100,ID,1564718868,30.19,0.74,3.33,99.16,57
poso,36,ID,1564718868,25.29,2.11,-1.4,120.75,49
kokopo,99,PG,1564718868,26.29,1.04,-4.34,152.27,90
kadoma,40,JP,1564718869,36.11,2.1,34.73,135.6,53
egvekinot,87,RU,1564718869,10.59,2.97,66.32,-179.17,58
kalmunai,100,LK,1564718869,29.39,1.37,7.42,81.82,59
viedma,2,AR,1564718869,8.59,9.23,-40.81,-62.99,65
kuandian,90,CN,1564718869,25.29,2.03,40.73,124.78,84
verkh-usugli,0,RU,1564718870,23.89,3.05,52.7,115.17,44
odesskoye,100,RU,1564718870,19.39,4.15,54.21,72.97,81
staroye drozhzhanoye,89,RU,1564718870,11.39,6.37,54.73,47.56,86
